{
  "lastUpdated": "2025-10-06T11:45:00",
  "venues": [
    {
      "name": "하이스트",
      "adress": "경기도 안성시 사실로 212",
      "latitude": 37.1301210330316,
      "longitude": 127.43604536026,
      "photos": [
        "assets/images/name/highest.png"
      ]
    },
    {
      "name": "소노골프장",
      "adress": "소노메인센터",
      "latitude": 37.6521031526954,
      "longitude": 127.687106349987,
      "photos": [
        "assets/images/name/sonogolf.png"
      ]
    },
    {
      "name": "상암월드컵공원",
      "adress": "",
      "latitude": 37.5715979723206,
      "longitude": 126.881674368525,
      "photos": [
        "assets/images/name/waltbow.png"
      ]
    },
    {
      "name": "춘천에니메이션 박물관",
      "adress": "",
      "latitude": 37.8930610610383,
      "longitude": 127.691892620055,
      "photos": []
    },
    {
      "name": "반려마루",
      "adress": "경기도 여주시 명품1로 1-2",
      "latitude": 37.237869075355,
      "longitude": 127.612552562806,
      "photos": []
    }
  ]
}
